{
  "regions":[

    {
      "value": -1,
      "name": "Miền Bắc"
    },
    {
        "value": 1,
        "name": "Hà Nội",
        "lat": 21.03333,
        "lng": 105.85000
    },
    {
        "value": 2,
        "name": "Bắc Ninh",
        "lat": 21.18528,
        "lng": 106.05639
    },
    {
        "value": 3,
        "name": "Hà Nam",
        "lat": 20.5835196,
        "lng": 105.92299
    },
    {
        "value": 4,
        "name": "Hải Dương",
        "lat": 20.9385958,
        "lng": 106.3206861
    },
    {
        "value": 5,
        "name": "Hải Phòng",
        "lat": 20.86194,
        "lng": 106.68028
    },
    {
        "value": 6,
        "name": "Hưng Yên",
        "lat": 20.8525711,
        "lng": 106.0169971
    },
    {
        "value": 7,
        "name": "Nam Định",
        "lat": 20.2791804,
        "lng": 106.2051484
    },
    {
        "value": 8,
        "name": "Ninh Bình",
        "lat": 20.2129969,
        "lng": 105.92299
    },
    {
        "value": 9,
        "name": "Thái Bình",
        "lat": 20.5386936,
        "lng": 106.3934777
    },
    {
        "value": 10,
        "name": "Vĩnh Phúc",
        "lat": 21.3608805,
        "lng": 105.5474373
    },
    {
        "value": 11,
        "name": "Hà Giang",
        "lat": 22.7662056,
        "lng": 104.9388853
    },
    {
        "value": 12,
        "name": "Cao Bằng",
        "lat": 22.635689,
        "lng": 106.2522143
    },
    {
        "value": 13,
        "name": "Bắc Kạn",
        "lat": 22.3032923,
        "lng": 105.876004
    },
    {
        "value": 14,
        "name": "Lạng Sơn",
        "lat": 21.8563705,
        "lng": 106.6291304
    },
    {
        "value": 15,
        "name": "Tuyên Quang",
        "lat": 22.1726708,
        "lng": 105.3131185
    },
    {
        "value": 16,
        "name": "Thái Nguyên",
        "lat": 21.5671559,
        "lng": 105.8252038
    },
    {
        "value": 17,
        "name": "Phú Thọ",
        "lat": 21.268443,
        "lng": 105.2045573
    },
    {
        "value": 18,
        "name": "Bắc Giang",
        "lat": 21.3014947,
        "lng": 106.6291304
    },
    {
        "value": 19,
        "name": "Quảng Ninh",
        "lat": 21.006382,
        "lng": 107.2925144
    },
    {
        "value": 20,
        "name": "Lào Cai",
        "lat": 22.3380865,
        "lng": 104.1487055
    },
    {
        "value": 21,
        "name": "Yên Bái",
        "lat": 21.6837923,
        "lng": 104.4551361
    },
    {
        "value": 22,
        "name": "Điện Biên",
        "lat": 21.8042309,
        "lng": 103.1076525
    },
    {
        "value": 23,
        "name": "Hoà Bình",
        "lat": 20.6861265,
        "lng": 105.3131185
    },
    {
        "value": 24,
        "name": "Lai Châu",
        "lat": 22.3686613,
        "lng": 103.3119085
    },
    {
        "value": 25,
        "name": "Sơn La",
        "lat": 21.1022284,
        "lng": 103.7289167
    },

    {
      "value": -1,
      "name": "Miền Trung"
    },

    {
        "value": 26,
        "name": "Thanh Hoá",
        "lat": 20.1291279,
        "lng": 105.3131185
    },
    {
        "value": 27,
        "name": "Nghệ An",
        "lat": 19.2342489,
        "lng": 104.9200365
    },
    {
        "value": 28,
        "name": "Hà Tĩnh",
        "lat": 18.2943776,
        "lng": 105.6745247
    },
    {
        "value": 29,
        "name": "Quảng Bình",
        "lat": 17.6102715,
        "lng": 106.3487474
    },
    {
        "value": 30,
        "name": "Quảng Trị",
        "lat": 16.7943472,
        "lng": 106.963409
    },
    {
        "value": 31,
        "name": "Thừa Thiên-Huế",
        "lat": 16.467397,
        "lng": 107.5905326
    },
    {
        "value": 32,
        "name": "Đà Nẵng",
        "lat": 16.05194,
        "lng": 108.21528
    },
    {
        "value": 33,
        "name": "Quảng Nam",
        "lat": 15.5393538,
        "lng": 108.019102
    },
    {
        "value": 34,
        "name": "Quảng Ngãi",
        "lat": 15.0759838,
        "lng": 108.7125791
    },
    {
        "value": 35,
        "name": "Bình Định",
        "lat": 14.1665324,
        "lng": 108.902683
    },
    {
        "value": 36,
        "name": "Phú Yên",
        "lat": 13.0881861,
        "lng": 109.0928764
    },
    {
        "value": 37,
        "name": "Khánh Hoà",
        "lat": 12.2585098,
        "lng": 109.0526076
    },
    {
        "value": 38,
        "name": "Ninh Thuận",
        "lat": 11.6738767,
        "lng": 108.8629572
    },
    {
        "value": 39,
        "name": "Bình Thuận",
        "lat": 11.0903703,
        "lng": 108.0720781
    },
    {
        "value": 40,
        "name": "Kon Tum",
        "lat": 14.661167,
        "lng": 107.83885
    },
    {
        "value": 41,
        "name": "Gia Lai",
        "lat": 13.8078943,
        "lng": 108.109375
    },
    {
        "value": 42,
        "name": "Đắc Lắc",
        "lat": 12.7100116,
        "lng": 108.2377519
    },
    {
        "value": 43,
        "name": "Đắc Nông",
        "lat": 12.2646476,
        "lng": 107.609806
    },
    {
        "value": 44,
        "name": "Lâm Đồng",
        "lat": 11.5752791,
        "lng": 108.1428669
    },

    {
      "value": -1,
      "name": "Miền Nam"
    },

    {
        "value": 45,
        "name": "Hồ Chí Minh",
        "lat": 10.83333,
        "lng": 106.63278
    },
    {
        "value": 46,
        "name": "Cần Thơ",
        "lat": 10.03278,
        "lng": 105.78389
    },
    {
        "value": 47,
        "name": "Bình Phước",
        "lat": 11.7511894,
        "lng": 106.7234639
    },
    {
        "value": 48,
        "name": "Bình Dương",
        "lat": 11.3254024,
        "lng": 106.477017
    },
    {
        "value": 49,
        "name": "Đồng Nai",
        "lat": 10.95694,
        "lng": 106.84306
    },
    {
        "value": 50,
        "name": "Tây Ninh",
        "lat": 11.3675415,
        "lng": 106.1192802
    },
    {
        "value": 51,
        "name": "Bà Rịa-Vũng Tàu",
        "lat": 10.5417397,
        "lng": 107.2429976
    },
    {
        "value": 52,
        "name": "Long An",
        "lat": 10.695572,
        "lng": 106.2431205
    },
    {
        "value": 53,
        "name": "Đồng Tháp",
        "lat": 10.4937989,
        "lng": 105.6881788
    },
    {
        "value": 54,
        "name": "Tiền Giang",
        "lat": 10.4493324,
        "lng": 106.3420504
    },
    {
        "value": 55,
        "name": "An Giang",
        "lat": 10.5215836,
        "lng": 105.1258955
    },
    {
        "value": 56,
        "name": "Bến Tre",
        "lat": 10.1081553,
        "lng": 106.4405872
    },
    {
        "value": 57,
        "name": "Vĩnh Long",
        "lat": 10.0861281,
        "lng": 106.0169971
    },
    {
        "value": 58,
        "name": "Trà Vinh",
        "lat": 9.812741,
        "lng": 106.2992912
    },
    {
        "value": 59,
        "name": "Hậu Giang",
        "lat": 9.757898,
        "lng": 105.6412527
    },
    {
        "value": 60,
        "name": "Kiên Giang",
        "lat": 9.8249587,
        "lng": 105.1258955
    },
    {
        "value": 61,
        "name": "Sóc Trăng",
        "lat": 9.6003688,
        "lng": 105.9599539
    },
    {
        "value": 62,
        "name": "Bạc Liêu",
        "lat": 9.2515555,
        "lng": 105.5136472
    },
    {
        "value": 63,
        "name": "Cà Mau",
        "lat": 8.9624099,
        "lng": 105.1258955
    }
]}